{
  "paris":
  [{
    "name": "Girafe",
    "description": "c",
    "location": "d",
    "city": "paris",
    "instagram": "e"
  },
  {
    "name": "Livio",
    "description": "c",
    "location": "d",
    "city": "paris",
    "instagram": "e"
  },
  {
    "name": "Fouquet's",
    "description": "c",
    "location": "d",
    "city": "paris",
    "instagram": "e"
  },
  {
    "name": "Le Cafe Marly",
    "description": "c",
    "location": "d",
    "city": "paris",
    "instagram": "e"
  },
  {
    "name": "La Poule au pot",
    "description": "c",
    "location": "d",
    "city": "paris",
    "instagram": "e"
  },
  {
    "name": "Colette",
    "description": "c",
    "location": "d",
    "city": "paris",
    "instagram": "e"
  },
  {
    "name": "Restaurant Le Coq",
    "description": "c",
    "location": "d",
    "city": "paris",
    "instagram": "e"
  },
  {
    "name": "Cafe de Flore",
    "description": "c",
    "location": "d",
    "city": "paris",
    "instagram": "e"
  },
  {
    "name": "Libanese restuarant",
    "description": "c",
    "location": "d",
    "city": "paris",
    "instagram": "e"
  },
  {
    "name": "Ralph's",
    "description": "c",
    "location": "d",
    "city": "paris",
    "instagram": "e"
  },
  {
    "name": "Paradis du Fruit",
    "description": "c",
    "location": "d",
    "city": "paris",
    "instagram": "e"
  },
  {
    "name": "Monsieur Bleu",
    "description": "c",
    "location": "d",
    "city": "paris",
    "instagram": "e"
  },
  {
    "name": "Truffles Folies",
    "description": "c",
    "location": "d",
    "city": "paris",
    "instagram": "e"
  },
  {
    "name": "Omelettes Oriane",
    "description": "c",
    "location": "d",
    "city": "paris",
    "instagram": "e"
  },
  {
    "name": "Birthday place with parents",
    "description": "c",
    "location": "d",
    "city": "paris",
    "instagram": "e"
  },
  {
    "name": "Restaurant sur champs elysees",
    "description": "c",
    "location": "d",
    "city": "paris",
    "instagram": "e"
  },
  {
    "name": "Les Jardins du Presbourg",
    "description": "c",
    "location": "d",
    "city": "paris",
    "instagram": "e"
  },
  {
    "name": "Pink Mamma",
    "description": "c",
    "location": "d",
    "city": "paris",
    "instagram": "e"
  },
  {
    "name": "La fille du boucher",
    "description": "c",
    "location": "d",
    "city": "paris",
    "instagram": "e"
  }],
  "london": [{
    "name": "The Ivy Chelsea Garden",
    "description": "c",
    "location": "d",
    "city": "london",
    "instagram": "e"
  },
  {
    "name": "The avocado show",
    "description": "c",
    "location": "d",
    "city": "london",
    "instagram": "e"
  },
  {
    "name": "Gail's",
    "description": "c",
    "location": "d",
    "city": "london",
    "instagram": "e"
  },
  {
    "name": "NAC",
    "description": "c",
    "location": "d",
    "city": "london",
    "instagram": "e"
  },
  {
    "name": "Shake Shack",
    "description": "c",
    "location": "d",
    "city": "london",
    "instagram": "e"
  },
  {
    "name": "Seabird",
    "description": "c",
    "location": "d",
    "city": "london",
    "instagram": "https://www.instagram.com/p/Cd2rMYwoFrH/embed"
  },
  {
    "name": "Kailash Momo",
    "description": "c",
    "location": "d",
    "city": "london",
    "instagram": "e"
  },
  {
    "name": "Eat Tokyo",
    "description": "c",
    "location": "d",
    "city": "london",
    "instagram": "e"
  },
  {
    "name": "Hot Pot",
    "description": "c",
    "location": "d",
    "city": "london",
    "instagram": "e"
  },
  {
    "name": "Gloria",
    "description": "c",
    "location": "d",
    "city": "london",
    "instagram": "e"
  },
  {
    "name": "Circolo Popolare",
    "description": "c",
    "location": "d",
    "city": "london",
    "instagram": "e"
  },
  {
    "name": "Blue Bird",
    "description": "c",
    "location": "d",
    "city": "london",
    "instagram": "e"
  },
  {
    "name": "Rice Guys",
    "description": "c",
    "location": "d",
    "city": "london",
    "instagram": "e"
  },
  {
    "name": "Rosa's Thai",
    "description": "c",
    "location": "d",
    "city": "london",
    "instagram": "e"
  },
  {
    "name": "Drunch",
    "description": "c",
    "location": "d",
    "city": "london",
    "instagram": "e"
  },
  {
    "name": "Royal China",
    "description": "c",
    "location": "d",
    "city": "london",
    "instagram": "e"
  },
  {
    "name": "Big Easy",
    "description": "c",
    "location": "d",
    "city": "london",
    "instagram": "e"
  },
  {
    "name": "Savage Garden",
    "description": "c",
    "location": "d",
    "city": "london",
    "instagram": "e"
  },
  {
    "name": "Fortnum and Mason",
    "description": "c",
    "location": "d",
    "city": "london",
    "instagram": "e"
  }],
  "New York": [],
  "Dubai": [],
  "San Francisco": []
}